Country,City,Latitude,Longitude
br,rio das ostras,-22.533333,-41.95
mx,saltabarranca,18.6,-95.533333
br,jacupiranga,-24.700034,-48.004445000000004
au,lara,-38.02388,144.406174
mm,bago,17.3333333,96.4833333
tr,ercis,39.028688,43.358636
bg,kostinbrod,42.8166667,23.216666699999998
in,maisuru,12.307222,76.649722
fr,sainte-luce-sur-loire,47.253807,-1.4842959999999998
in,ellenabad,29.45,74.65
ua,kryvyy rih,47.909659000000005,33.380438
ru,menzelinsk,55.727056000000005,53.102578
ro,daesti,44.966667,24.133333
us,barrington,42.1538889,-88.1361111
in,katwa,23.65,88.133333
ro,costisa,46.75,26.65
ao,kibala,-10.73366,14.979949
in,bansda,20.75,73.366667
ph,nama,16.1412,120.5426
pk,kot addu,30.469196999999998,70.967141
ph,ternate,14.2897,120.7168
br,frei paulo,-10.55,-37.533333
ca,salmo,49.2,-117.28333300000001
ch,kussnacht,47.085571,8.442057
ma,tetouan,35.571090999999996,-5.372424
ru,magadan,59.566667,150.8
ci,beoumi,7.673951,-5.580855000000001
jp,hirado,33.359722,129.553056
gr,sinarades,39.5647222,19.845833300000002
br,matipo,-20.283333,-42.35
us,dennis,41.7352778,-70.1944444
de,beckingen,49.4,6.7
it,barletta,41.316666999999995,16.283333
ru,irsha,55.9273,94.7999
at,hall,47.6,14.45
br,cacapava,-23.1,-45.716667
bg,dimovo,43.7416667,22.726944399999997
in,kalmeshwar,21.233333,78.9
mx,amacuzac,18.583333,-99.35
de,oschersleben,52.033333,11.25
id,ende,-8.8432,121.6623
ph,bantog,16.0091,120.6929
gb,crewe,53.1,-2.433333
ro,frumoasa,43.8,25.466667
us,butte,46.0038889,-112.5338889
be,genappe,50.6,4.45
us,coral terrace,25.7455556,-80.3047222
ba,blagaj,43.2575,17.888611100000002
id,kendari,-3.945,122.49888899999999
in,rampur,28.816667,79.033333
ph,manalad,10.0056,122.7769
in,lakshettipet,18.866667,79.216667
py,mbocayaty,-25.7,-56.4
br,morros,-9.446667,-46.300278000000006
hu,gyulahaza,48.133333,22.116667
ba,trzacka rastela,44.9733333,15.790277800000002
es,arucas,28.115992,-15.518723999999999
ro,brodina,47.883333,25.416667
hn,san francisco,13.180833300000002,-87.0983333
ph,san rafael,14.1284,121.4147
nl,bergschenhoek,51.987249,4.515815
nz,havelock,-41.283333,173.76666699999998
ph,mondragon,12.5157,124.7523
in,bid,18.983333,75.766667
pe,san miguel,-13.0122222,-73.9805556
pk,adilpur,27.936974,69.318685
ca,crystal beach,45.05,-79.4
ug,adjumani,3.3613888999999997,31.8097222
bw,makaleng,-20.9,27.2833333
it,tempio pausania,40.9,9.1
si,crna na koroskem,46.466666700000005,15.85
lu,aspelt,49.5227778,6.2247222
it,grosseto,42.766667,11.133333
us,centennial,39.5791667,-104.8763889
it,capaci,38.166667,13.233332999999998
hn,teupasenti,14.2166667,-86.7
ro,silistea,44.4,28.166666999999997
ph,tabuc,11.4694,122.775
gb,dundee,56.5,-2.9666669999999997
it,campodarsego,45.5,11.9
tj,karakendzha,39.2422222,71.5261111
us,mendota heights,44.8836111,-93.1380556
ht,jeremie,18.6166667,-74.08333329999999
in,sheoganj,25.15,73.06666700000001
fr,septemes-les-vallons,43.400537,5.36979
us,union city,33.58694439999999,-84.5425
ca,cochrane,49.066666999999995,-81.016667
br,gandu,-13.75,-39.5
id,purbalingga,-7.388056,109.36388899999999
co,san andres,6.903333,-75.6825
ph,taytayan,10.8787,123.9771
de,burgthann,49.35,11.3
us,marana,32.4366667,-111.2247222
ro,reghin,46.766667,24.7
ru,yurty,56.0498,97.6348
py,isla pucu,-25.3,-56.9
ro,malu cu flori,45.15,25.2
br,orlandia,-20.716667,-47.883333
ro,dersca,47.983333,26.2
us,gantt,34.8,-82.4244444
us,villas,26.55,-81.8688889
gr,silivainiotika,38.1666667,22.3333333
de,losheim,49.516667,6.75
ru,orlovo,51.753972,39.587312
mx,santiago de cuenda,20.6,-100.983333
in,attingal,8.683333,76.833333
in,sarka ghat,31.7,76.733333
gb,bury,53.6,-2.3
ru,yaya,56.206,86.44
jp,abashiri,44.019721999999994,144.258611
ph,balut,14.683333,120.55
gr,ierissos,40.4,23.8833333
us,picayune,30.525277799999998,-89.67944440000001
dk,skovby,56.153395999999994,9.956951
sz,big bend,-26.816666700000003,31.933333299999997
pt,silveira,39.111197,-9.364298
us,bloomington,39.1652778,-86.52638890000001
ro,corod,45.9,27.616667
mx,ixtapa,20.7,-105.2
ph,villareal,11.5659,124.9281
co,valle del guamuez,0.4525,-76.919167
us,woodbury,44.923888899999994,-92.9591667
us,deerfield,42.171111100000005,-87.8444444
br,araguacu,-12.894167,-49.773056
us,centerville,39.6283333,-84.1594444
it,capoterra,39.174444,8.971111
ru,zhirnov,48.170885999999996,41.126082000000004
it,rionero in vulture,40.916667,15.666667000000002
lb,jubayl,34.1166667,35.65
ru,stroitel,50.785427,36.483098999999996
ph,halapitan,7.9175,125.33
mx,zaachila,16.916667,-96.766667
es,rota,36.622363,-6.358589
am,shenavan,40.05,43.9333333
ua,vasylivka,47.436944,35.274167
ru,verkhniy baskunchak,48.225639,46.721695000000004
de,ottobrunn,48.066666999999995,11.683333
br,matias olimpio,-3.7166669999999997,-42.55
mx,yachihuacaltepec,19.324167000000003,-99.67944399999999
ru,tula,54.202132999999996,37.644294
gh,nsawam,5.8,-0.35
ph,malbug,12.0563,123.6461
pk,gwadar,25.12163,62.325410999999995
no,heias,59.7,11.3
hn,zopilotepe,14.6,-86.2666667
br,boquim,-11.15,-37.616667
am,solak,40.4636111,44.708611100000006
rs,vrcin,44.668611,20.594167000000002
it,montalto uffugo,39.4,16.15
de,borna,51.116667,12.5
co,barbosa,5.931675,-73.615065
ru,yashkino,55.8736,85.4265
in,arcot,12.9,79.333333
ro,periam,46.05,20.866667
mt,zabbar,35.876111,14.535
bf,gayeri,12.6497222,0.4930556
mx,altepexi,18.35,-97.31666700000001
ru,buy,58.48066800000001,41.536992
ru,vakhrushev,48.983333,142.966667
ph,palimbang,6.2105559999999995,124.189444
br,jaguariuna,-22.683332999999998,-46.983333
cn,jiayuguan,39.816666999999995,98.3
ph,mailag,7.9702779999999995,125.1375
jo,samma,32.571027,35.690251
es,santa lucia,27.911307,-15.543416
au,benalla,-36.551128000000006,145.984253
mg,ambatondrazaka,-17.8333333,48.4166667
in,kodungallur,10.222222,76.199167
za,piet retief,-27.007063,30.813231
it,guastalla,44.916667,10.65
cz,hodkovice nad mohelkou,50.665805,15.090202
hu,zomba,46.410838,18.565767
td,kyabe,9.45,18.95
bo,guayaramerin,-10.8,-65.3833333
ro,arieseni,46.483333,22.766667
cn,shaping,22.477547,112.84578400000001
de,papenburg,53.066667,7.4
zm,kalabo,-14.9666667,22.6833333
us,gurnee,42.3702778,-87.9019444
ru,novopodrezkovo,55.939721999999996,37.344167
ro,tureni,46.616667,23.7
cz,pribor,49.640482,18.150476
pk,kharan,28.583333000000003,65.416667
ru,russko-vysotskoye,59.699633999999996,29.944035999999997
mx,bacum,27.55,-110.08333300000001
pt,carvalhosa,41.30057,-8.360803
cn,taonan,45.333333,122.78333300000001
ph,bacolod,8.931667,126.28944399999999
ro,castelu,44.25,28.333333000000003
ro,vadeni,45.366667,27.933333
pl,nysa,50.47226,17.33618
id,payakumbuh,-0.22019,100.630781
cn,anshun,26.25,105.933333
lv,plavinas,56.6166667,25.716666699999998
jp,kawaguchi,35.805,139.72055600000002
ro,berevoesti,45.233333,24.916667
gr,patris,40.561111100000005,22.1861111
de,loningen,52.733332999999995,7.766667
br,soure,-0.733333,-48.516667
de,grunberg,50.6,8.95
ro,breaza,46.766667,24.633333
pt,aljustrel,37.877594,-8.165159
fr,marmande,44.500371,0.16546
gh,wa,10.05,-2.4833333
in,kheda,22.75,72.68333299999999
mx,atitalaquia,20.066667000000002,-99.216667
ie,ballinrobe,53.6333333,-9.233333300000002
mx,asientos,22.233333,-102.1
de,roding,49.196389,12.518611
ro,jupanesti,44.9,23.533333
co,la merced,5.086666999999999,-75.8925
ph,luna,16.3311,119.8939
ru,chebarkul,54.9749,60.3633
ru,ladushkin,54.570254000000006,20.170989000000002
hn,berlin,14.833333300000001,-88.5
jp,kuroiso,36.966667,140.05
ca,provost,52.35,-110.266667
it,trani,41.283333,16.416667
in,palia kalan,28.45,80.583333
fr,cormeilles-en-parisis,48.971112,2.2049119999999998
gr,tragana,38.6166667,23.1166667
it,verona,45.45,11.0
gr,moria,39.1333333,26.516666700000002
bw,letlhakane,-21.4166667,25.5833333
us,milford,42.1397222,-71.5166667
mx,el colomo,19.05,-104.25
ro,astileu,47.033333,22.383333
dk,hjortshoj,56.24811,10.265325
in,ratanpur,22.3,82.166667
no,bud,62.916667000000004,6.9166669999999995
us,wolcott,41.6022222,-72.9872222
th,suwannaphum,15.60348,103.80206700000001
in,rudarpur,26.439444,83.61444399999999
ru,ayan,56.45,138.166667
gb,ilfracombe,51.216667,-4.116667
ru,khristoforovo,60.898931000000005,47.253413
cz,pruhonice,50.001471,14.559534
pl,bystrzyca klodzka,50.298252000000005,16.653029
nl,bergen,51.600383,6.034003
mx,zimatlan,16.866667,-96.783333
ru,nizhniy baskunchak,48.219776,46.831053000000004
fr,goussainville,49.013672,2.465948
it,cicciano,40.966667,14.533332999999999
gr,khiliomodion,37.8166667,22.8666667
ph,santa cruz,12.8763,124.0566
gr,askos,40.75,23.3833333
bt,wangdiphodrang,27.483333299999998,89.9
ph,lunen,6.359167,124.90472199999999
tz,mikumi,-7.4,36.9833333
ec,valdez,1.2491667,-78.9830556
ph,mianay,11.4716,122.7011
in,nangloi jat,28.683333,77.06666700000001
it,massa,44.016667,10.15
ca,kanata,45.333333,-75.9
us,whitewater,42.833611100000006,-88.73222220000001
ar,san lorenzo,-28.133060999999998,-58.767331000000006
ws,tufulele,-13.8,-171.8833333
uz,kosonsoy,41.256111100000005,71.5508333
it,aragona,37.4,13.616667000000001
az,basqal,40.7552,48.391044
mx,lombardia,19.15,-102.033333
in,nadbai,27.233333000000002,77.2
ph,arenas,15.1704,120.6876
pa,pacora,9.083333300000001,-79.2833333
hu,buk,47.384859999999996,16.750654
ph,san pedro,10.960999999999999,124.8197
ro,turnu magurele,43.75,24.866667
my,mersing,2.4312,103.8405
ro,poiana sibiului,45.8,23.733333
mx,amilpas,16.366667,-94.616667
ru,pervomayskiy,64.4165,40.8122
ng,ise,7.4632,5.4281
gb,coatbridge,55.86666700000001,-4.033333
fr,saint-chamond,45.473646,4.525411
am,hayanist,40.1197222,44.3775
ro,floresti,46.733333,23.483333
ro,darmanesti,47.733333,26.15
hn,potrerillos,15.633333300000002,-88.3
gt,san jeronimo,15.05,-90.2
us,hialeah,25.8572222,-80.2783333
cn,suicheng,33.896298,117.933066
ru,kamenka,60.446391000000006,29.082901
gr,kostalexis,38.85,22.3666667
ch,arth,47.06337,8.523485
my,kerteh,4.5141,103.4483
ro,mozaceni,44.566666999999995,25.166667
hn,arauli,13.95,-86.55
ru,ilinskiy,47.997778000000004,142.20916699999998
fr,chateaurenard,43.882248,4.853279
it,cerignola,41.266667,15.9
us,tavares,28.803888899999997,-81.7258333
hn,corozal,15.8,-86.7166667
ph,san nicolas,15.5841,120.6765
pl,laziska gorne,50.14643,18.839423
br,itinga,-16.6,-41.783333
mz,pemba,-12.960833300000001,40.5077778
id,pemangkat,1.166667,108.96666699999999
ua,vysokyy,49.889198,36.132098
ch,bad ragaz,47.005367,9.501217
am,astghadzor,40.1238889,45.3566667
bg,boljarovo,42.15,26.816666700000003
ru,zhdankovskiy,53.753207999999994,38.179514000000005
us,virginia beach,36.8527778,-75.9783333
si,grosuplje,45.955555600000004,14.658888899999999
fr,le pecq,48.89317,2.103714
br,ipaussu,-23.05,-49.616667
us,woodward,36.4336111,-99.39
ru,irbit,57.670525,63.071000000000005
ru,shuyskoye,59.373557,41.030474
us,huron,44.3633333,-98.21388890000001
de,ratzeburg,53.7,10.766667
cn,angangxi,47.15,123.81
cz,zelezna ruda,49.137768,13.232492
id,ternate,0.8,127.4
ph,quezon,10.436169,123.260401
ph,lalagsan,10.2824,123.01299999999999
za,grabouw,-34.151519,19.015091
be,sint-laureins,51.25,3.516667
pe,tambopata,-12.733333300000002,-69.1833333
gh,duayaw nkwanta,7.1666667,-2.1
de,harsum,52.216667,9.966667
gt,la esperanza,14.866667000000001,-91.56666700000001
br,propria,-10.216667,-36.85
ba,gacko,43.1672222,18.535277800000003
in,sojitra,22.55,72.716667
mx,chocaman,19.016667,-97.016667
th,mae ramat,16.984032,98.516646
ru,medvedka,58.742554000000005,59.103584
pk,bhan,26.558311,67.721386
us,bellefontaine,40.3611111,-83.75972220000001
ro,baluseni,47.666667,26.8
ru,uvat,59.143333,68.895278
ph,glamang,6.162548999999999,125.08391499999999
hu,hercegszanto,45.95,18.939167
us,forest lake,45.2788889,-92.985
br,sao joao,-8.866667,-36.366667
us,jenks,36.0227778,-95.9680556
no,klokkarvik,60.2225,5.155556
ru,almetyevsk,54.904424,52.315397
cn,baoshan,46.558611,131.424444
us,angola,41.6347222,-84.9994444
bg,batanovci,42.5997222,22.9505556
kz,bulaevo,54.905556000000004,70.443889
us,lincolnwood,42.0044444,-87.73
pm,miquelon,47.0975,-56.3813889
ua,pershotravneve,51.392871,28.868373
us,clinton,38.3686111,-93.7780556
us,tonawanda,43.0202778,-78.8805556
us,palm city,27.1675,-80.26638890000001
ro,letcani,47.183333000000005,27.416666999999997
pa,las colinas,8.55,-80.08333329999999
nl,gorinchem,51.82965,4.973111
it,piano di sorrento,40.633333,14.383332999999999
us,chelmsford,42.5997222,-71.3677778
in,bhopal,23.266667,77.4
ro,balta,44.886944,22.636944
gb,kidderminster,52.383333,-2.25
tw,tucheng,24.9833333,121.43333329999999
tr,aksehir,38.3575,31.416389000000002
ph,alibunan,11.146523,122.459106
no,lundamo,63.13333299999999,10.3
ro,rimetea,46.45,23.566667000000002
de,finnentrop,51.166667,7.966667
am,yerevan,40.1811111,44.513611100000006
in,mayang imphal,24.616667,93.883333
hu,felsoszentivan,46.197127,19.186854999999998
in,rasra,25.85,83.85
us,newburg,38.16,-85.6597222
ru,vladivostok,43.128056,131.90111100000001
gr,skhisma,35.2666667,25.716666699999998
co,urrao,6.315197,-76.134201
us,spring,30.079722200000003,-95.4169444
pk,jand,33.429853,72.019285
ph,san jose,8.133611,126.293889
ni,diriamba,11.85,-86.2333333
br,bom jesus,-9.066667,-44.366667
co,tibacuy,4.351111,-72.456389
pf,uturoa,-16.7333333,-151.43333330000002
br,jaguarari,-10.266667,-40.2
no,herre,59.1,9.566667
ph,macayug,16.0896,120.405
jp,nanae,41.883333,140.683333
ec,daule,-1.8666667000000001,-79.9333333
ph,natubleng,16.696474,120.78054099999999
be,overpelt,51.216667,5.4166669999999995
ch,langnau,46.93936,7.787380000000001
us,frankfort,41.4958333,-87.84861109999999
br,santo angelo,-28.3,-54.266667000000005
il,azur,32.019166999999996,34.810556
cz,susice,49.237292,13.523972
ng,afikpo,5.893121,7.937353
ph,gibato,11.2251,122.8143
jp,kawasaki,33.583333,130.833333
ph,punta silum,8.381667,124.269444
co,san juan de arama,3.346389,-73.889444
et,huruta,8.15,39.35
it,cesena,44.143333,12.249722
am,margara,40.0336111,44.173888899999994
cn,hami,42.8,93.45
us,north potomac,39.0827778,-77.26527779999999
my,tangkak,2.2673,102.5453
us,kinnelon,41.0016667,-74.3675
ro,alexandria,43.983333,25.333333
se,timra,62.477778,17.306944
ec,naranjal,-2.6666667,-79.6166667
pk,toba tek singh,30.974326,72.482694
sv,corinto,13.8108333,-87.97138890000001
gf,camopi,3.1666667,-52.35
in,nandurbar,21.366667,74.25
ph,leon,10.780849,122.389404
ru,azovo,54.699716,73.02367199999999
ua,izyum,49.208754,37.248484999999995
ph,labasan,12.777318,121.46921499999999
us,wickliffe,41.605277799999996,-81.45361109999999
pk,gujar khan,33.255786,73.30254599999999
us,northfield,43.4330556,-71.5927778
si,lucija,45.4963889,13.6136111
fr,hericourt,47.573048,6.761392
ro,strehaia,44.616667,23.2
at,melk,48.216667,15.316667
cn,shiyan,32.6475,110.778056
gb,ayr,55.45,-4.616667
dk,hedensted,55.770131000000006,9.696694
jp,kaita,34.366667,132.55
rs,sremcica,44.676944,20.393056
gr,eleusis,38.033333299999995,23.533333300000002
hn,azacualpa,14.7166667,-88.1
de,herford,52.133333,8.683333
ru,orda,57.195085999999996,56.909078
ph,pasacao,13.5118,123.0426
ph,kawit,8.1875,124.066667
us,salmon creek,45.7108333,-122.6477778
ru,zolotukhino,52.084204,36.377765999999994
ne,tillabery,14.211666699999999,1.4530556000000001
co,mongui,5.721507,-72.84908
be,hamme,51.1,4.133333
pl,gdynia,54.5,18.55
in,ichchapuram,19.116667,84.7
mx,tlacotalpan,18.616667,-95.666667
ua,kosmach,48.329906,24.820519
sl,pujehun,7.3505556,-11.7180556
us,alexandria,38.8047222,-77.04722220000001
us,kernersville,36.1197222,-80.07388890000001
ht,saint-raphael,19.4333333,-72.2
gr,exarkhos,38.5833333,22.95
pk,rabwah,31.755833000000003,72.919722
pt,salreu,40.739709000000005,-8.557195
us,bristol,40.10055560000001,-74.8522222
us,cutlerville,42.8408333,-85.6636111
ph,catuday,16.2923,119.8062
tr,erbaa,40.668889,36.5675
ke,kangema,-0.6833333,36.966666700000005
es,calatayud,41.353534,-1.643184
br,goianira,-16.5,-49.433333000000005
mx,ebano,22.216667,-98.4
hu,mindszent,46.523621,20.190381
ba,obudovac,44.965,18.612222199999998
de,norderstedt,53.7,10.016667
gr,akhinos,38.9,22.7333333
in,pardi,20.516667,72.95
ph,quezon,9.241111,118.03138899999999
jp,hekinan,34.883333,136.98333300000002
gh,foso,5.7,-1.2833333
gb,kingussie,57.083332999999996,-4.05
in,koregaon,18.65,74.083333
ph,lantawan,6.6402,121.8395
ro,verbita,44.3,23.166667
ir,aligudarz,33.400633,49.694901
ph,ragay,13.8183,122.7923
ua,matviyivka,47.074725,35.144439
ch,meiringen,46.726776,8.183961
gt,san pedro sacatepequez,14.684167,-90.64416700000001
th,kranuan,16.706722,103.078778
in,jalalabad,29.618610999999998,77.438333
in,digha,21.683332999999998,87.55
hn,san marcos,15.3,-88.41666670000001
lt,druskininkai,54.0166667,23.966666699999998
id,wonogiri,-7.814444,110.920556
it,francofonte,37.233333,14.883332999999999
py,san pedro del parana,-26.833333000000003,-56.2
pk,kahuta,33.591303,73.38676
in,tuni,17.35,82.55
so,eyl,7.9666667,49.8166667
us,johnson city,42.11555560000001,-75.9591667
ro,cotofenii din dos,44.433333000000005,23.616667
ph,palagao,18.043187,121.699051
za,utrecht,-27.658623,30.321659999999998
cu,guanajay,22.9263889,-82.6875
ca,edmonton,53.55,-113.5
us,greenville,40.1027778,-84.63305559999999
lu,sandweiler,49.6133333,6.2188889000000005
in,ulubaria,22.471667,88.11361099999999
bt,jakar,27.55,90.7333333
gb,yetholm,55.55,-2.266667
gb,taunton,51.021111,-3.104722
in,nepa nagar,21.466667,76.4
mx,jamapa,19.033333,-96.233333
in,dongargaon,20.966667,80.85
mk,resen,41.08888889999999,21.012222199999997
hu,villany,45.868889,18.453889
